City_ID,city,Temperature,Longitude,Latitude,Cloudiness,Wind Speed,Humidity
0,sosnovo-ozerskoye,25.31,111.5418,52.5249,10,1.18,40
1,kodiak,9.73,-152.4072,57.79,100,4.63,100
2,maloye ganyushkino,21.85,49.2667,46.6,0,2.95,30
3,thompson,24.09,-97.8558,55.7435,40,3.6,31
4,i-n-salah,36.55,2.4607,27.1935,83,4.35,9
5,kuanda,27.49,116.0806,56.3161,21,0.76,49
6,san luis de la loma,26.93,-100.8939,17.2706,88,1.1,85
7,ushuaia,0.81,-68.3,-54.8,75,1.54,93
8,bamyan,10.17,67.25,34.75,0,2.15,65
9,cooma,3.8,149.1333,-36.2333,100,2.18,58
10,yellowknife,28.29,-114.3525,62.456,40,3.6,24
11,port alfred,19.35,26.891,-33.5906,100,5.14,86
12,grytviken,-7.9,-36.5092,-54.2811,49,4.99,79
13,aracataca,27.04,-74.1898,10.5918,22,0.07,77
14,adamstown,19.25,-130.1015,-25.066,56,11.07,64
15,ghatkesar,24.36,78.6853,17.4494,100,4.11,87
16,port-aux-francais,4.81,70.2167,-49.35,100,6.71,97
17,majene,27.05,118.9707,-3.5403,97,3.66,83
18,bardai,24.43,7.2333,11.65,70,3.28,77
19,pavlogradka,18.79,73.5592,54.2024,84,1.75,74
20,loikaw,21.31,97.2094,19.6742,100,1.64,92
21,vorgashor,2.16,63.95,67.5833,24,5.05,76
22,sechura,19.52,-80.8222,-5.5569,6,6.67,75
23,longyearbyen,5.91,15.6401,78.2186,40,7.72,81
24,coyhaique,3.34,-72.0662,-45.5752,47,2.96,98
25,ardakan,29.0,54.0175,32.31,20,4.14,28
26,whitehorse,20.82,-135.0538,60.7161,75,4.63,42
27,edinburgh of the seven seas,15.39,-12.3116,-37.0676,70,14.75,81
28,alice springs,9.75,133.8833,-23.7,100,5.66,93
29,bethel,21.24,-73.414,41.3712,64,0.89,88
30,avarua,27.03,-159.775,-21.2078,75,3.6,78
31,utrik,27.77,169.8474,11.2278,100,8.06,77
32,dudinka,9.7,86.1778,69.4058,49,2.85,49
33,san luis,8.21,-66.3356,-33.295,19,1.28,35
34,debark',10.41,37.8981,13.1561,100,0.98,88
35,lazaro cardenas,27.03,-102.2,17.9583,24,2.76,77
36,brookings,20.76,-96.7984,44.3114,40,5.14,46
37,lorengau,28.62,147.2712,-2.0226,99,4.42,78
38,bredasdorp,11.12,20.0403,-34.5322,76,0.84,92
39,weno,31.97,151.8468,7.4515,75,3.6,84
40,mata-utu,27.59,-176.1745,-13.2816,82,8.1,79
41,isafjordur,10.5,-23.124,66.0755,100,5.24,84
42,waitangi,11.57,-176.5597,-43.9535,4,2.24,86
43,bilibino,21.0,166.4372,68.0546,86,6.12,43
44,albany,18.96,-73.9662,42.6001,0,3.13,64
45,eureka,16.32,-124.1637,40.8021,28,1.34,87
46,flying fish cove,23.82,105.6791,-10.4217,100,5.66,100
47,kyaka,15.67,31.4203,-1.2522,35,1.75,66
48,walterboro,27.25,-80.6668,32.9052,40,3.09,83
49,porto novo,26.9,2.6036,6.4965,100,2.08,89
50,lautoka,29.92,177.4667,-17.6167,20,3.09,42
51,happy valley-goose bay,13.17,-60.3315,53.3168,75,1.54,100
52,port elizabeth,16.29,25.5701,-33.918,40,1.54,96
53,el alto,18.64,-81.2147,-4.2714,22,4.42,79
54,wailua homesteads,26.17,-159.378,22.0669,20,5.14,64
55,ad dawadimi,29.64,44.3924,24.5077,99,5.08,15
56,puerto natales,3.25,-72.4875,-51.7236,20,9.26,65
57,badger,28.61,-147.5333,64.8,0,1.54,34
58,goundam,30.45,-3.6708,16.4145,87,2.4,50
59,midvagur,9.46,-7.1939,62.0511,100,4.63,93
60,uturoa,26.42,-151.4333,-16.7333,6,9.81,79
61,puerto ayora,21.42,-90.3518,-0.7393,42,0.89,95
62,namdrik,28.27,168.1028,5.5994,87,3.81,74
63,sao gabriel da cachoeira,24.49,-67.0892,-0.1303,100,0.81,92
64,papatowai,9.69,169.4708,-46.5619,100,2.68,89
65,cockburn town,28.46,-71.1419,21.4612,6,8.45,83
66,diffa,28.41,12.6113,13.3154,100,7.0,62
67,crane,33.97,-102.3501,31.3974,2,9.91,31
68,fale old settlement,28.35,-171.2468,-9.3852,60,8.19,78
69,west island,26.99,96.8225,-12.1568,75,7.2,83
70,richards bay,17.24,32.0377,-28.783,0,1.31,57
71,wildwood,22.8,-90.6629,38.5828,0,3.6,56
72,jamestown,14.38,-79.2353,42.097,100,5.14,88
73,abepura,28.45,140.5833,-2.6333,20,2.06,79
74,kota,27.8,75.8333,25.1833,100,5.15,80
75,san julian,19.75,-102.1667,21.0167,80,3.61,70
76,vypasne,22.32,34.1773,45.8756,14,2.23,56
77,lompoc,20.42,-120.4579,34.6391,0,8.23,63
78,hasaki,27.22,140.8333,35.7333,100,9.62,91
79,saynshand,20.97,110.1163,44.8824,82,6.1,56
80,college,28.39,-147.8028,64.8569,100,1.54,32
81,lebu,10.4,-73.65,-37.6167,100,4.12,91
82,kamloops,20.79,-120.3192,50.6665,75,10.8,64
83,ust-nera,19.18,143.2,64.5667,28,1.83,40
84,lihue,27.47,-159.3672,21.9789,20,5.14,64
85,barah,30.01,30.3667,13.7,97,4.92,36
86,san patricio,30.29,-97.5169,28.017,0,5.53,68
87,ciudad sabinas hidalgo,26.46,-100.1667,26.5,53,4.16,79
88,as sulayyil,33.14,45.5779,20.4607,21,4.52,14
89,maracaju,16.22,-55.1683,-21.6144,74,2.25,26
90,margaret river,14.92,115.0667,-33.95,27,6.7,70
91,mek'ele,18.52,39.4753,13.4967,45,1.62,71
92,hamilton,21.93,-84.5333,39.1834,9,1.79,61
93,kuybyshev,19.62,78.3218,55.4475,10,3.15,80
94,magway,26.18,94.9167,20.15,100,5.96,79
95,ilulissat,5.01,-51.1,69.2167,100,0.0,81
96,malango,21.96,119.9001,-2.9627,100,0.26,95
97,daru,25.28,143.2092,-9.0763,100,7.27,89
98,talnakh,8.61,88.3972,69.4865,83,1.83,53
99,togur,17.62,82.8265,58.3631,44,1.6,78
100,miquelon,13.0,-56.3814,47.0975,100,14.49,98
101,mar del plata,12.17,-57.5575,-38.0023,98,4.92,51
102,cadale,25.29,46.3222,2.7603,78,7.47,85
103,pisco,17.03,-76.2167,-13.7,40,2.57,82
104,geraldton,14.23,114.6,-28.7667,0,5.66,82
105,borova,23.47,30.1043,50.1763,5,2.94,69
106,el sauce,25.49,-86.539,12.8869,98,0.97,87
107,whakatane,15.49,176.9854,-37.9585,100,2.24,96
108,makoua,25.16,15.6333,0.0069,84,1.13,68
109,nizhneudinsk,26.91,99.0276,54.9076,77,1.98,50
110,nemuro,14.96,145.575,43.3236,100,7.24,99
111,voznesenskoye,16.56,42.7569,54.89,66,1.2,90
112,chonchi,3.95,-73.8092,-42.6128,98,0.67,91
113,la sarre,12.32,-79.1996,48.8002,5,2.25,71
114,iron river,13.64,-88.6423,46.0927,0,1.81,67
115,invercargill,10.57,168.35,-46.4,100,0.89,94
116,susuman,7.85,148.1667,62.7833,100,1.7,91
117,praia da vitoria,21.14,-27.0667,38.7333,40,5.2,83
118,bel ombre,25.91,55.4167,-4.6167,75,6.69,94
119,amga,23.04,131.9608,60.8953,100,5.09,36
120,tomohon,21.52,124.8392,1.3346,96,0.94,80
121,mugia,14.95,-9.2179,43.1041,13,3.94,93
122,riachao,25.54,-46.6172,-7.3619,14,1.84,43
123,hami,31.94,93.45,42.8,100,6.08,18
124,ellore,26.05,81.1,16.7,100,2.49,89
125,olinda,24.85,-34.8553,-8.0089,75,2.57,78
126,aykhal,13.64,111.5,66.0,100,2.47,77
127,goynuk,12.65,30.7883,40.4003,0,1.43,83
128,eilat,29.91,34.9482,29.5581,0,7.72,48
129,kapit,23.6,112.9333,2.0167,100,0.91,100
130,mili,27.87,171.735,6.0815,100,2.9,76
131,buon ma thuot,25.39,108.05,12.6667,18,1.32,81
132,olonkinbyen,4.49,-8.7187,70.9221,10,3.55,85
133,anadyr,10.56,177.4833,64.75,20,10.0,66
134,tazovsky,6.77,78.7,67.4667,100,6.33,97
135,selfoss,8.36,-20.9971,63.9331,100,6.11,87
136,la passe,14.13,-0.8967,45.5549,14,2.82,89
137,kapuskasing,18.0,-82.4331,49.4169,20,3.09,68
138,hithadhoo,28.52,73.0833,-0.6,29,4.95,76
139,murud,27.44,72.965,18.3258,100,6.98,87
140,georgetown,27.03,100.3354,5.4112,40,1.54,80
141,ghadamis,32.84,9.5007,30.1337,0,4.5,18
142,hengshui,25.46,115.7011,37.7322,100,1.0,63
143,el granada,19.66,-122.4694,37.5027,20,13.89,67
144,puerto yuca,23.82,-73.2083,2.9383,19,0.21,94
145,tsiombe,15.4,45.4833,-25.3,0,1.5,68
146,tieli,20.23,128.05,46.95,0,2.06,59
147,nantucket,21.13,-70.0995,41.2835,40,6.17,97
148,blackmans bay,7.48,147.3167,-43.0167,11,1.34,73
149,smithers,20.18,-127.1743,54.7804,75,4.63,42
150,tolanaro,15.04,46.9987,-25.0319,20,3.09,100
151,hawaiian paradise park,27.25,-154.9731,19.5933,100,5.66,72
152,qaqortoq,2.13,-46.0333,60.7167,9,2.52,84
153,rauma,14.02,21.5113,61.1272,100,5.51,96
154,iqaluit,4.83,-68.5145,63.7506,75,1.54,80
155,ribeira grande,20.99,-28.7,38.5167,0,8.05,86
156,charters towers,23.28,146.2667,-20.1,2,2.95,59
157,tura,23.86,90.2201,25.5198,100,1.91,99
158,vilyuchinsk,12.15,158.4028,52.9306,100,2.58,86
159,dangriga,27.73,-88.2321,16.9692,100,7.37,87
160,burdur,19.39,30.2908,37.7203,0,5.66,45
161,shambu,10.12,37.1,9.5667,92,0.66,96
162,tank,37.56,70.3793,32.2217,0,2.1,37
163,taro,23.0,115.28,-8.3862,100,1.97,85
164,apopa,25.15,-89.1792,13.8072,100,1.0,99
165,yuzhno-kurilsk,13.7,145.8556,44.0306,100,5.57,100
166,zouerate,32.36,-12.4521,22.7187,0,6.9,17
167,yaprakli,12.51,33.7782,40.7579,0,2.68,60
168,kruisfontein,13.32,24.7314,-34.0033,100,0.69,87
169,alofi,25.94,-169.9187,-19.0595,100,5.14,73
170,pacific grove,16.9,-121.9166,36.6177,40,4.12,74
171,codrington,10.88,141.9667,-38.2667,100,3.87,63
172,jayrud,19.7,36.7404,33.8074,0,0.82,61
173,al burayqah,25.28,19.5739,30.4062,0,5.07,76
174,kapa'a,26.32,-159.319,22.0752,20,5.14,70
175,saipan,32.39,145.701,15.1355,0,6.69,66
176,serhiyivka,22.07,30.3768,46.0272,0,3.87,52
177,prainha,24.84,-53.48,-1.8,100,1.24,86
178,beloyarskiy,10.45,66.6722,63.7119,100,3.74,75
179,antsiranana,22.78,49.2917,-12.2787,89,6.46,79
180,haiku-pauwela,27.04,-156.3051,20.9219,20,10.29,66
181,ketchikan,13.1,-131.6461,55.3422,100,5.14,94
182,sitka,12.94,-135.33,57.0531,100,3.09,88
183,kendari,24.29,122.4989,-3.945,100,0.91,97
184,bamboo flat,27.69,92.7167,11.7,100,4.41,81
185,iskushuban,29.76,50.23,10.2837,100,11.68,37
186,kailua-kona,27.25,-155.9956,19.6406,0,4.63,74
187,kristiansund,10.36,7.732,63.1115,100,4.63,93
188,punta arenas,0.06,-70.9167,-53.15,40,1.54,93
189,sisimiut,3.24,-53.6735,66.9395,100,2.4,98
190,cabo san lucas,33.16,-109.9124,22.8909,0,4.63,37
191,namibe,17.15,12.1522,-15.1961,0,4.68,78
192,cairo,26.42,31.2497,30.0626,0,3.6,83
193,kuqa,29.23,82.9364,41.7278,100,2.55,25
194,tobruk,24.24,23.9764,32.0836,0,3.8,73
195,udachny,13.89,112.4,66.4167,100,3.71,68
196,klyuchi,22.38,79.1667,52.2667,26,4.22,73
197,ndele,23.15,20.6473,8.4109,100,0.75,79
198,port mathurin,23.03,63.4167,-19.6833,12,9.0,69
199,willmar,20.95,-95.0433,45.1219,20,3.6,49
200,nar'yan-mar,4.42,53.087,67.6713,100,4.05,84
201,ellensburg,22.47,-120.5479,46.9965,0,12.35,46
202,dakhla,18.86,-15.958,23.6848,0,11.04,88
203,atafu village,28.39,-172.5159,-8.5421,100,9.55,79
204,lashio,21.41,97.75,22.9333,100,0.99,97
205,bidur,26.19,101.2833,4.1167,95,0.38,81
206,al faw,31.0,48.4741,29.9776,3,5.27,21
207,jagalur,22.77,76.35,14.5333,100,6.34,86
208,kurchatov,18.23,35.6521,51.6601,17,1.16,85
209,gagliano del capo,24.68,18.3695,39.8442,0,1.03,88
210,zaozersk,9.09,32.4476,69.4005,98,1.58,97
211,ust'-barguzin,22.59,108.9833,53.45,6,0.95,51
212,caromatan,26.31,123.7145,7.7959,100,1.0,88
213,motema,21.69,-11.0333,8.6,100,0.59,100
214,pahrump,38.37,-115.9839,36.2083,0,4.47,6
215,timmins,16.9,-81.3331,48.4669,20,2.06,59
216,gobo,25.57,135.15,33.8833,100,7.5,93
217,gemena,23.75,19.7667,3.25,100,0.62,63
218,ancud,7.03,-73.8203,-41.8697,100,1.14,78
219,kabo,21.6,18.629,7.6994,98,1.25,90
220,westport,21.97,-73.3579,41.1415,75,3.09,87
221,kirundo,13.9,30.1667,-2.5833,31,0.76,69
222,yangchun,31.44,111.7833,22.1667,69,3.84,71
223,mega,12.75,38.3,4.05,66,4.28,92
224,archidona,20.78,-4.3887,37.0965,0,1.95,79
225,basti,31.96,82.7167,26.8,53,1.43,61
226,mabaruma,24.04,-59.7833,8.2,75,0.34,94
227,razole,25.83,81.8333,16.4833,100,1.54,92
228,guymon,31.0,-101.4816,36.6828,0,6.17,58
229,obo,19.5,26.4869,5.3998,100,1.63,98
230,peschanokopskoye,19.37,41.0775,46.1961,0,3.5,41
231,puerto baquerizo moreno,21.41,-89.6,-0.9,59,4.03,87
232,thyolo,15.02,35.1405,-16.0678,78,0.7,82
233,aasiaat,0.85,-52.8699,68.7098,97,1.64,94
234,dogonbadan,26.05,50.7981,30.3586,6,0.0,29
235,axim,24.23,-2.2405,4.8699,100,2.81,92
236,tvoroyri,9.96,-6.8111,61.5556,100,6.41,95
237,puerto lempira,26.41,-83.7667,15.2667,87,2.89,88
238,touros,24.08,-35.4608,-5.1989,0,5.1,84
239,stropkov,21.94,21.6522,49.2021,99,1.11,95
240,kayangel,27.14,134.7173,8.0823,100,4.66,80
241,lincheng,31.45,109.6858,19.9078,99,4.29,64
242,buala,29.24,159.5921,-8.145,23,4.33,72
243,poyarkovo,23.78,128.6833,49.6,81,2.98,44
244,moose jaw,21.14,-105.5344,50.4001,100,7.2,60
245,iskateley,5.65,53.1512,67.6803,100,3.26,78
246,paita,18.62,-81.1144,-5.0892,6,4.51,84
247,lefka,21.16,32.8506,35.1106,0,2.04,46
248,shingu,27.27,135.9833,33.7333,100,6.11,86
249,boa vista,25.99,-60.6733,2.8197,40,2.06,83
250,acarau,25.44,-40.12,-2.8856,38,5.54,80
251,revelstoke,16.01,-118.2023,50.9832,100,2.57,88
252,nova vicosa,22.84,-39.3719,-17.8919,88,2.25,84
253,ixtapa-zihuatanejo,30.05,-101.55,17.6333,75,0.0,66
254,stanley,10.05,-1.6985,54.868,0,4.12,86
255,shar,25.49,81.0453,49.5886,100,3.43,47
256,galliano,29.0,-90.2992,29.4422,0,0.0,79
257,macomb,19.68,-90.6718,40.4592,0,2.57,62
258,la ronge,23.14,-105.2842,55.1001,40,4.12,28
259,keflavik,8.24,-22.5624,64.0049,100,6.69,93
260,ghormach,26.3,63.7826,35.7306,0,4.27,29
261,afaahiti,28.93,-149.2833,-17.75,40,10.1,80
262,colares,17.34,-9.4469,38.7992,3,8.05,91
263,petropavlovsk-kamchatsky,11.33,158.6483,53.0452,75,6.0,76
264,labytnangi,8.73,66.4183,66.6572,20,3.52,56
265,mercedes,7.36,-59.4307,-34.6515,6,4.41,56
266,hammerfest,11.25,23.6821,70.6634,75,2.06,82
267,segou,28.99,-6.2157,13.4317,96,2.65,62
268,cromer,11.47,1.2989,52.9312,96,3.81,83
269,san rafael del sur,26.54,-86.4384,11.8485,82,3.83,81
270,kabompo,10.86,24.2008,-13.5927,0,1.95,61
271,laguna,35.28,-121.4238,38.421,0,6.69,29
272,novo aripuana,25.27,-60.3797,-5.1206,11,1.04,72
273,east london,19.38,27.9116,-33.0153,58,3.82,84
274,altai,21.38,96.2583,46.3722,93,4.31,28
275,constantia,18.38,28.65,44.1833,0,2.55,77
276,valparaiso,15.0,-71.6273,-33.0393,7,4.17,62
277,inarajan village,28.71,144.7484,13.2736,25,5.53,93
278,egersund,12.83,5.9997,58.4513,67,4.26,85
279,nikolayevsk-on-amure,23.68,140.73,53.1406,2,1.43,39
280,hilo,28.44,-155.09,19.7297,100,5.66,66
281,tamandare,23.5,-35.1047,-8.7597,24,1.61,82
282,de aar,12.13,24.0123,-30.6497,86,3.23,47
283,manado,26.43,124.8455,1.487,40,2.57,89
284,protaras,26.1,34.0583,35.0125,0,0.45,59
285,rongelap,28.45,166.8941,11.1635,95,8.55,71
286,khandyga,19.9,135.6,62.6667,100,0.93,59
287,bahar,15.09,48.4414,34.9072,0,1.03,55
288,poxoreo,21.22,-54.3892,-15.8372,30,1.41,68
289,sanya,31.09,109.505,18.2431,40,2.0,84
290,okha,16.98,142.9478,53.5739,5,1.18,59
291,amursk,21.59,136.8994,50.2261,0,2.18,48
292,coron,30.13,120.2043,11.9986,100,2.59,67
293,gizo,28.5,156.8419,-8.103,16,3.0,74
294,port hedland,21.03,118.5667,-20.3167,0,8.75,40
295,nazarovo,21.34,90.3914,56.0064,100,1.56,71
296,los andes,11.12,-70.5983,-32.8337,17,3.07,34
297,wote,15.53,37.6288,-1.7808,35,0.88,93
298,christchurch,13.23,172.6333,-43.5333,100,3.09,64
299,ciudad satelite,17.16,-99.25,19.5167,100,2.14,77
300,lubang,29.37,120.124,13.8584,92,5.9,74
301,tiksi,7.5,128.8694,71.6872,100,1.42,62
302,heroica caborca,36.05,-112.15,30.7167,73,3.81,38
303,rio grande,2.75,-52.0986,-32.035,1,4.49,73
304,yerofey pavlovich,30.09,121.9667,53.9667,63,1.95,31
305,saint-philippe,18.77,55.7679,-21.3585,32,1.05,74
306,qamdo,8.69,97.2333,31.1667,0,1.5,58
307,okhotsk,16.1,143.3,59.3833,1,2.93,65
308,nagqu,9.75,92.0,31.5,89,3.24,47
309,torquay,13.05,-3.5143,50.4638,94,3.47,82
310,urumqi,27.53,87.6005,43.801,0,2.0,37
311,skovorodino,28.55,123.9167,53.9833,9,2.79,35
312,thurso,11.14,-3.5259,58.5927,12,3.27,90
313,thames,15.43,175.5333,-37.1333,100,6.26,84
314,tofol,30.88,163.0078,5.3248,75,1.54,74
315,santa cruz,15.7,-63.1667,-17.8,75,1.03,44
316,bonthe,24.75,-12.505,7.5264,100,3.67,90
317,gubkinskiy,10.72,76.5026,64.434,59,10.53,73
318,villa gesell,7.25,-56.973,-37.2639,31,9.45,55
319,manohar thana,27.18,76.8018,24.24,100,4.73,82
320,sao paulo de olivenca,24.43,-68.8725,-3.3783,63,0.56,90
321,guatrache,10.69,-63.5302,-37.6678,100,4.05,38
322,azna,21.07,48.9307,33.6095,0,1.0,25
323,marquette,14.05,-87.6335,46.5333,0,2.25,74
324,rikaze,15.74,88.8833,29.25,73,0.66,55
325,remire-montjoly,28.02,-52.2667,4.9167,20,3.09,83
326,mutoko,9.41,32.2268,-17.397,9,1.7,74
327,tara,19.04,74.371,56.8944,82,3.14,86
328,robertsport,25.34,-11.3686,6.7533,96,3.58,85
329,khark,32.68,50.3306,29.2614,3,3.86,69
330,tinajo,20.49,-13.7081,29.0788,100,6.69,78
331,mirny,28.4,113.9611,62.5353,8,5.23,46
332,morehead city,28.3,-76.726,34.7229,40,7.72,87
333,gumla,23.48,84.55,23.05,100,4.92,92
334,srivardhan,27.52,73.0167,18.0333,98,7.05,86
335,palmer,21.19,-72.3287,42.1584,75,2.57,88
336,vila velha,21.97,-40.2925,-20.3297,75,6.17,78
337,muisne,24.9,-80.0333,0.6,95,3.2,87
338,hefei,28.01,117.2808,31.8639,75,1.0,83
339,yoko,17.8,12.3167,5.5333,39,1.34,98
340,saint-flour,10.49,3.0,45.0833,100,1.06,95
341,dunedin,8.78,170.5036,-45.8742,100,2.68,96
342,crucecita,6.91,-58.9833,-28.95,0,3.02,65
343,palikir - national government center,30.41,158.1611,6.9248,100,4.63,79
344,verkhniy tagil,16.27,59.9556,57.3733,77,1.83,79
345,souillac,21.21,57.5167,-20.5167,75,2.06,94
346,prieska,14.28,22.7474,-29.6641,75,3.95,40
347,tutoia,26.15,-42.2744,-2.7619,23,4.69,85
348,enewetak,28.46,162.3373,11.3474,68,8.33,79
349,alo,23.12,6.7371,7.4178,97,1.35,97
350,couvin,13.48,4.495,50.0528,100,2.83,99
351,chivhu,8.7,30.8922,-19.0211,0,2.29,58
352,boali,23.59,18.1275,4.8005,100,0.94,70
353,kulhudhuffushi,28.21,73.07,6.6221,100,4.29,78
354,heyuan,30.33,114.6833,23.7333,100,3.4,74
355,yangjiang,30.29,111.9667,21.85,96,5.96,77
356,sal rei,22.11,-22.9167,16.1833,43,7.12,88
357,sarmiento,4.19,-69.07,-45.5882,53,13.4,60
358,the bottom,27.31,-63.2492,17.6259,7,11.26,78
359,kununurra,30.99,128.7333,-15.7667,17,6.17,42
360,l'govskiy,19.04,35.2775,51.6307,23,1.07,84
361,moroto,19.56,34.6666,2.5345,92,2.05,67
362,la libertad,22.76,-80.9,-2.2333,17,3.03,81
363,plymstock,13.43,-4.0905,50.36,99,3.64,84
364,tchintabaraden,32.35,5.7985,15.8969,100,6.61,42
365,loango,20.81,11.8312,-4.6719,75,0.0,100
366,khovd,26.98,91.6419,48.0056,99,4.75,27
367,horta,20.57,-28.6333,38.5333,0,7.6,85
368,timaru,9.49,171.25,-44.4,100,7.27,90
369,chu,25.74,73.7614,43.5983,66,4.92,37
370,mount pearl,15.14,-52.7813,47.5166,100,6.69,93
371,idil,22.96,41.8895,37.3411,0,1.03,29
372,vylkove,19.59,29.586,45.4021,0,1.84,61
373,flin flon,19.8,-101.865,54.7682,10,2.09,49
374,carnarvon,18.96,113.6333,-24.8667,0,7.25,57
375,montella,19.14,15.0179,40.8437,8,0.59,91
376,coxen hole,28.6,-86.5366,16.3244,20,8.75,79
377,bubaque,27.3,-15.8333,11.2833,100,5.5,84
378,suva,26.71,178.4415,-18.1416,40,4.63,61
379,vorkuta,3.56,64.0,67.5,34,4.69,69
380,minas de marcona,12.7,-75.1103,-15.2119,15,4.78,84
381,manthani,25.42,79.6667,18.65,100,1.51,86
382,castillos,4.79,-53.8333,-34.1667,24,4.98,76
383,cutral-co,9.95,-69.2089,-38.9469,21,2.76,10
384,kutum,25.6,24.6667,14.2,89,2.77,39
385,santa maria del oro,27.53,-105.3667,25.9333,44,7.13,32
386,mount darwin,11.48,31.5838,-16.7725,20,1.21,71
387,colby,20.81,-101.0524,39.3958,100,7.2,83
388,kolonia,15.9,6.95,50.9333,75,1.54,90
389,copala,25.81,-98.9833,16.65,100,0.62,87
390,taltal,17.55,-70.4833,-25.4,0,1.92,56
391,kalabo,11.96,22.6814,-14.97,0,2.26,52
392,cerklje na gorenjskem,17.4,14.4886,46.2542,0,0.51,92
393,daye,26.86,114.95,30.0833,97,2.3,90
394,kabinda,18.91,24.4833,-6.1333,38,2.16,50
395,palmares do sul,6.45,-50.5097,-30.2578,0,3.52,77
396,pathein,26.18,94.7333,16.7833,100,1.75,92
397,soligalich,14.81,42.2864,59.0778,98,1.94,78
398,kurumkan,28.5,110.3,54.3,8,1.21,43
399,mao,22.31,4.2658,39.8885,0,2.06,94
400,kushiro,19.53,144.3747,42.975,100,2.57,100
401,essaouira,20.72,-9.77,31.5125,0,3.6,73
402,tuapse,19.68,39.0742,44.1125,21,2.4,60
403,alenquer,25.05,-54.7383,-1.9417,49,1.5,83
404,kabansk,28.57,106.6528,52.0486,6,1.82,41
405,sungai penuh,23.78,101.3833,-2.0833,28,0.45,71
406,chibougamau,15.79,-74.3659,49.9168,0,5.14,55
407,puerto francisco de orellana,22.1,-76.9667,-0.4667,60,0.31,99
408,poli,12.27,36.8,-3.3333,50,0.92,95
409,revda,14.14,59.9303,56.801,94,2.6,89
410,tezu,23.67,96.1667,27.9167,100,0.79,98
411,salekhard,9.08,66.6019,66.53,47,3.06,56
412,howrah,29.0,88.3103,22.5892,75,2.06,89
413,tipasa,22.74,2.4475,36.5897,96,0.94,64
414,wanning,30.69,110.3967,18.8003,76,6.08,76
415,goure,32.17,10.2704,13.9835,100,3.37,39
416,frankfurt (oder),16.83,14.5506,52.3471,100,1.34,94
417,portland,25.09,-122.6762,45.5234,75,2.06,53
418,terenozek,17.63,64.9833,45.05,3,5.48,49
419,port lincoln,12.29,135.8667,-34.7333,95,1.79,67
420,itoman,31.03,127.6694,26.1247,75,6.69,84
421,bayanhongor,17.99,100.1167,46.7167,96,1.05,38
422,usogorsk,15.24,48.6872,63.4106,60,2.61,70
423,dieppe,13.34,1.1667,49.75,100,1.97,92
424,st. john's,15.6,-52.7093,47.5649,100,6.69,93
425,teknaf,27.88,92.3058,20.8624,100,7.2,87
426,salinopolis,25.68,-47.3561,-0.6136,76,4.55,88
427,benalla,10.23,145.9833,-36.55,0,0.81,51
428,taroa,27.85,171.2275,8.7058,100,5.99,80
429,pointe aux piments,21.03,57.5131,-20.0628,87,6.06,93
430,kindu,24.73,25.95,-2.95,99,0.74,53
431,havre,14.87,0.3333,49.5833,100,3.6,88
432,kingston,29.53,-76.7936,17.997,5,7.2,70
433,broken hill,10.0,141.4333,-31.95,6,7.28,50
434,saint-pierre,18.82,55.4781,-21.3393,0,4.12,55
435,grand falls-windsor,16.39,-55.6649,48.9332,100,0.89,86
436,ola,8.12,151.2833,59.5833,100,7.12,96
437,manjeshvar,26.66,74.8833,12.7,100,2.95,83
438,vadso,8.09,29.7487,70.0744,40,1.03,93
439,talagutong,27.77,125.6678,6.2644,100,0.41,75
440,tikrit,31.44,43.6782,34.6071,0,3.49,17
441,sweet home,25.94,-122.7362,44.3976,10,0.45,46
442,yorkton,18.91,-102.4677,51.2167,75,4.12,59
443,port douglas,24.82,145.4667,-16.4833,54,4.68,65
444,huangnihe,22.92,128.0239,43.5583,10,1.68,45
445,barcelos,16.12,-8.6151,41.5388,0,1.21,94
446,laksham,26.43,91.1425,23.2472,100,3.86,94
447,spassk-dal'niy,19.86,132.8211,44.5978,0,3.33,65
448,fortaleza,26.07,-38.5247,-3.7227,20,2.06,83
449,mount isa,17.87,139.5,-20.7333,20,8.23,68
450,skidaway island,28.74,-81.0471,31.9349,0,4.02,83
451,sinabang,27.13,96.3801,2.4803,98,1.23,75
452,umluj,30.0,37.2685,25.0213,42,3.51,56
453,anar darah,27.71,61.654,32.7587,3,6.88,25
454,bijapur,24.58,75.7,16.8333,100,7.15,77
455,laojunmiao,21.36,97.7333,39.8333,30,6.75,31
456,kourou,28.03,-52.6478,5.1552,58,4.21,90
457,cambria,22.21,-121.0808,35.5641,0,7.03,54
458,semnan,24.36,53.3971,35.5729,70,3.42,50
459,shetpe,19.65,52.1167,44.1667,0,1.4,35
460,rada tilly,6.27,-67.5333,-45.9333,0,12.86,56
461,launceston,8.42,147.1667,-41.45,4,0.92,54
462,sangre grande,25.94,-61.1177,10.5835,100,2.37,92
463,berdychiv,18.99,28.6024,49.8993,0,3.85,71
464,guerrero negro,20.15,-114.0611,27.9769,18,7.28,80
465,kuta,26.97,115.1723,-8.7233,75,2.06,94
466,carauari,24.06,-66.8958,-4.8828,76,0.35,85
467,zheleznogorsk-ilimskiy,30.49,104.1217,56.5768,0,3.23,32
468,banda aceh,28.1,95.3222,5.5577,100,2.93,75
469,patong,26.08,98.2966,7.8961,100,2.18,72
470,roxas,27.86,122.7511,11.5853,100,1.86,72
471,levoca,18.98,20.5921,49.0217,99,1.18,91
472,nyurba,26.87,118.3319,63.2842,92,4.84,57
473,salalah,29.05,54.0924,17.0151,75,3.09,89
474,huilong,26.0,121.655,31.8111,100,5.54,92
475,salinas,18.26,-121.6555,36.6777,0,6.69,69
476,maracacume,23.03,-45.9592,-2.0428,92,1.65,97
477,pervomayskiy,18.82,40.2871,53.2485,8,2.84,92
478,rawson,6.31,-65.1023,-43.3002,0,8.58,64
479,victorica,8.88,-65.4359,-36.2151,40,1.17,43
480,patterson,34.77,-121.1297,37.4716,0,4.77,36
481,tsumeb,13.71,17.7167,-19.2333,0,2.47,37
482,kabalo,21.58,26.9167,-6.05,6,2.0,50
483,manokwari,27.3,134.0833,-0.8667,98,3.08,75
484,karratha,22.09,116.8463,-20.7377,0,10.51,37
485,talcahuano,8.82,-73.1167,-36.7167,75,1.54,93
486,poronaysk,10.78,143.1167,49.2167,100,4.58,96
487,kavaratti,27.58,72.642,10.5669,100,6.49,82
488,eastham,21.15,-69.9739,41.8301,40,4.63,84
489,mil'kovo,20.19,37.7956,55.6078,100,1.86,87
490,lata,16.07,-8.3327,40.1629,22,0.88,98
491,americus,30.07,-84.2327,32.0724,40,2.57,79
492,fairview,22.42,-73.999,40.8126,75,4.47,89
493,oum hadjer,28.66,19.6966,13.2954,96,4.41,54
494,vernon,20.32,-119.2691,50.2581,100,2.68,68
495,shibganj,31.19,88.1598,24.6829,94,3.18,67
496,terebovlya,18.64,25.71,49.3019,50,2.76,66
497,lerwick,11.0,-1.1494,60.1545,100,5.94,84
498,coquimbo,11.85,-71.3436,-29.9533,0,4.12,93
499,sierra vista southeast,24.14,-110.2164,31.4539,100,3.4,81
500,nishinoomote,29.31,131.0,30.7333,75,5.66,89
501,fisterra,16.12,-9.2629,42.9049,9,4.8,92
502,kiunga,28.59,141.2906,-6.1219,93,1.83,73
503,jawf al maqbabah,27.24,45.8349,13.8378,100,0.39,60
504,pukchil-lodongjagu,23.23,125.7483,40.2019,98,0.58,84
505,thaba-tseka,3.31,28.6084,-29.522,5,1.57,72
506,hermiston,29.22,-119.2895,45.8404,0,6.69,30
507,marat,29.75,45.4615,25.0701,6,5.09,12
508,gobabis,11.55,18.9667,-22.45,91,5.46,43
509,kiruna,7.51,20.2251,67.8557,75,1.54,93
510,forster,15.16,152.5167,-32.1667,43,5.56,77
511,nuku'alofa,24.19,-175.2,-21.1333,40,5.66,73
512,hinton,13.68,-117.5857,53.4001,100,1.62,93
513,champerico,27.09,-91.9167,14.3,100,4.08,84
514,urengoy,7.75,78.3667,65.9667,86,8.73,83
515,coronel dorrego,11.63,-61.2873,-38.7187,94,9.14,38
516,benjamin hill,32.76,-111.1,30.1667,98,3.91,42
517,sydney mines,17.95,-60.2177,46.2367,100,7.72,96
518,madalena,14.67,-8.3345,41.2162,0,0.81,94
519,hermanus,13.23,19.2345,-34.4187,10,2.78,82
520,nago,31.52,127.9761,26.5881,79,6.1,77
521,sarangani,27.35,125.4636,5.4033,99,2.61,77
522,pasuquin,30.97,120.6177,18.3328,20,1.54,74
523,zhalantun,26.82,122.7167,48.0,31,2.97,28
524,kodinsk,29.06,99.1844,58.6881,54,2.66,44
525,calama,7.27,-68.9333,-22.4667,0,3.09,9
526,karagay,16.74,54.9368,58.2667,60,2.06,87
527,xichang,21.06,102.2634,27.8964,100,0.55,90
528,tralee,11.07,-9.7026,52.2704,100,2.4,96
529,al bawiti,24.68,28.8659,28.3492,0,3.22,67
530,sena madureira,24.36,-68.6569,-9.0656,50,2.25,60
531,lee acres,30.83,-106.647,35.1487,75,6.17,36
532,port macquarie,15.6,152.9167,-31.4333,98,1.79,74
533,garachico,17.49,-17.7646,28.7781,84,6.18,93
534,nova sintra,19.78,-24.7167,14.8667,25,7.01,85
535,yeed,23.03,43.0333,4.55,89,7.35,73
536,egilsstadir,11.95,-14.3948,65.2653,0,5.66,82
537,puloypuloy,28.7,124.096,6.6352,57,1.05,76
538,boguchany,28.6,97.4531,58.3814,98,3.11,50
539,mount gambier,10.34,140.7667,-37.8333,100,1.93,67
540,waingapu,29.0,120.2641,-9.6567,100,5.63,63
541,rahimah,30.12,50.0619,26.7079,7,4.97,33
542,vila franca do campo,18.27,-25.4333,37.7167,78,4.02,99
543,pitimbu,23.33,-34.8086,-7.4706,0,4.16,77
544,nanning,30.25,108.3167,22.8167,36,5.16,69
545,taiynsha,15.7,69.7639,53.8478,85,1.74,69
546,saldanha,14.03,17.9442,-33.0117,100,3.73,86
547,saposoa,24.17,-76.7716,-6.934,72,1.08,81
548,kon tum,25.37,108.0,14.35,100,1.39,86
549,hassi messaoud,36.92,6.0729,31.6804,0,2.57,10
550,aioun,29.32,-9.6149,16.6614,68,5.06,52
551,motomachi,26.01,144.1044,43.8228,75,6.69,69
552,mthatha,17.31,28.7844,-31.5889,13,3.09,48
553,yelizovo,12.08,158.3805,53.1873,75,7.0,71
554,zapolyarnyy,7.6,30.8136,69.4154,94,1.09,92
555,mashhad,20.08,59.6062,36.297,0,2.06,60
556,miri,28.08,114.0089,4.4148,20,3.6,78
557,san juan,11.83,-68.5364,-31.5375,3,4.05,25
558,khrenovoye,18.73,40.2889,51.12,29,0.95,87
559,bom jesus da lapa,22.94,-43.4181,-13.255,17,1.8,36
560,shagonar,21.95,92.8,51.5333,57,0.68,64
561,northam,13.75,-4.2167,51.0333,94,3.16,87
562,strelka,24.75,93.0344,58.0728,100,3.81,60
563,arkansas city,26.47,-97.0384,37.062,0,3.09,69
564,belaya kholunitsa,16.94,50.8528,58.84,98,2.12,96
565,preston,10.85,-2.7167,53.7667,72,3.5,87
566,bir el djir,21.47,-0.545,35.72,20,3.6,60
567,andergrove,25.83,149.1833,-21.0833,0,1.83,75
568,lichinga,16.05,35.2406,-13.3128,75,2.57,82
569,embi,14.39,58.1442,48.8264,98,6.35,76
570,akureyri,15.96,-18.0878,65.6835,100,9.77,63
571,kharkhorin,22.25,102.8238,47.1975,0,1.5,40
572,huarmey,18.39,-78.1522,-10.0681,45,3.95,85
573,archangelos,25.99,28.1149,36.2149,0,2.76,56
574,ko pha ngan,26.38,100.0291,9.7578,100,6.4,77
575,churapcha,23.19,132.4325,62.0025,63,6.16,40
